,pitch,roll,yaw,vgx,vgy,vgz,templ,temph,tof,h,bat,baro,time,agx,agy,agz
0,0.0,0.0,3.0,0.0,0.0,0.0,74.0,76.0,6553.0,0.0,33.0,129.52,0.0,-8.0,1.0,-1000.0
1,0.0,0.0,3.0,0.0,0.0,0.0,74.0,76.0,6553.0,0.0,33.0,129.51,0.0,-17.0,1.0,-1001.0
2,0.0,0.0,3.0,0.0,0.0,0.0,74.0,76.0,6553.0,0.0,33.0,129.51,0.0,-16.0,1.0,-1005.0
3,0.0,0.0,3.0,0.0,0.0,0.0,74.0,76.0,6553.0,0.0,33.0,129.51,0.0,-14.0,-6.0,-980.0
4,0.0,0.0,3.0,0.0,0.0,0.0,74.0,76.0,6553.0,0.0,33.0,129.51,0.0,-21.0,-29.0,-1008.0
5,0.0,0.0,4.0,0.0,0.0,0.0,74.0,77.0,6553.0,0.0,33.0,129.51,0.0,34.0,-34.0,-940.0
6,0.0,0.0,4.0,0.0,0.0,0.0,74.0,77.0,6553.0,0.0,33.0,129.51,0.0,26.0,-6.0,-1024.0
7,0.0,0.0,5.0,0.0,0.0,0.0,74.0,77.0,10.0,0.0,33.0,129.51,0.0,-8.0,-10.0,-1191.0
8,0.0,1.0,5.0,0.0,0.0,-1.0,74.0,77.0,10.0,0.0,33.0,129.51,0.0,5.0,-5.0,-1326.0
9,0.0,0.0,6.0,0.0,0.0,-4.0,74.0,77.0,10.0,0.0,33.0,129.51,0.0,-20.0,-24.0,-1207.0
10,-1.0,0.0,6.0,0.0,0.0,-6.0,74.0,77.0,16.0,0.0,33.0,129.71,0.0,-26.0,5.0,-1062.0
11,-1.0,0.0,6.0,0.0,0.0,-7.0,74.0,77.0,23.0,10.0,33.0,129.96,1.0,38.0,-8.0,-1036.0
12,-1.0,0.0,5.0,0.0,0.0,-7.0,74.0,77.0,30.0,20.0,33.0,130.01,1.0,-25.0,5.0,-999.0
13,0.0,0.0,5.0,0.0,0.0,-8.0,74.0,77.0,38.0,30.0,33.0,130.05,1.0,-28.0,5.0,-963.0
14,0.0,0.0,5.0,0.0,0.0,-7.0,74.0,77.0,45.0,40.0,33.0,130.16,1.0,-31.0,18.0,-892.0
15,0.0,0.0,5.0,0.0,0.0,-7.0,75.0,77.0,50.0,40.0,33.0,130.2,1.0,55.0,-22.0,-941.0
16,0.0,0.0,5.0,0.0,0.0,-6.0,75.0,77.0,56.0,50.0,33.0,130.29,1.0,9.0,-26.0,-931.0
17,0.0,0.0,5.0,0.0,0.0,-5.0,75.0,77.0,61.0,50.0,33.0,130.35,1.0,-57.0,16.0,-860.0
18,0.0,0.0,5.0,0.0,0.0,-4.0,75.0,77.0,65.0,60.0,33.0,130.35,1.0,-8.0,-8.0,-941.0
19,0.0,0.0,5.0,0.0,0.0,-3.0,75.0,77.0,67.0,60.0,33.0,130.37,1.0,-27.0,9.0,-855.0
20,0.0,0.0,5.0,0.0,0.0,-2.0,75.0,77.0,68.0,70.0,33.0,130.4,1.0,-11.0,-6.0,-880.0
21,0.0,0.0,5.0,0.0,0.0,-1.0,75.0,77.0,69.0,70.0,33.0,130.42,2.0,12.0,-5.0,-1014.0
22,0.0,0.0,5.0,0.0,0.0,0.0,75.0,77.0,69.0,70.0,33.0,130.39,2.0,29.0,-21.0,-937.0
23,0.0,0.0,5.0,0.0,0.0,0.0,75.0,77.0,69.0,70.0,33.0,130.4,2.0,10.0,-8.0,-936.0
24,0.0,0.0,5.0,0.0,0.0,0.0,75.0,77.0,69.0,70.0,32.0,130.4,2.0,15.0,-14.0,-994.0
25,0.0,0.0,5.0,0.0,0.0,0.0,75.0,76.0,70.0,70.0,32.0,130.49,2.0,-19.0,12.0,-998.0
26,0.0,1.0,5.0,0.0,0.0,0.0,75.0,76.0,70.0,70.0,32.0,130.45,2.0,-1.0,-17.0,-1062.0
27,0.0,0.0,5.0,0.0,0.0,0.0,75.0,76.0,71.0,70.0,32.0,130.49,2.0,-27.0,4.0,-1002.0
28,0.0,0.0,5.0,0.0,0.0,-1.0,75.0,76.0,72.0,70.0,32.0,130.46,2.0,-10.0,4.0,-1018.0
29,0.0,0.0,5.0,0.0,0.0,-1.0,75.0,76.0,72.0,70.0,32.0,130.47,2.0,-17.0,3.0,-983.0
30,-1.0,0.0,5.0,0.0,0.0,-1.0,75.0,76.0,73.0,70.0,32.0,130.41,2.0,2.0,-6.0,-998.0
31,-1.0,0.0,5.0,0.0,0.0,-1.0,75.0,76.0,74.0,70.0,32.0,130.45,3.0,-18.0,10.0,-992.0
32,-1.0,0.0,5.0,0.0,0.0,-1.0,75.0,76.0,76.0,70.0,32.0,130.54,3.0,-36.0,4.0,-947.0
33,0.0,0.0,5.0,0.0,0.0,0.0,75.0,76.0,78.0,70.0,32.0,130.5,3.0,-24.0,2.0,-995.0
34,0.0,0.0,5.0,0.0,0.0,0.0,75.0,76.0,79.0,70.0,32.0,130.51,3.0,8.0,-18.0,-1018.0
35,0.0,0.0,5.0,0.0,0.0,0.0,75.0,76.0,80.0,80.0,32.0,130.5,3.0,-23.0,7.0,-989.0
36,0.0,0.0,5.0,0.0,0.0,0.0,75.0,76.0,82.0,80.0,32.0,130.52,3.0,40.0,-23.0,-1038.0
37,0.0,0.0,5.0,0.0,0.0,-1.0,75.0,76.0,83.0,80.0,32.0,130.56,3.0,-42.0,7.0,-940.0
38,0.0,0.0,5.0,0.0,0.0,0.0,75.0,76.0,84.0,80.0,32.0,130.59,3.0,5.0,5.0,-1000.0
39,0.0,0.0,5.0,0.0,0.0,0.0,75.0,76.0,86.0,80.0,32.0,130.64,3.0,-8.0,-13.0,-1000.0
40,0.0,0.0,5.0,0.0,0.0,0.0,75.0,76.0,87.0,80.0,32.0,130.5,3.0,-2.0,-6.0,-953.0
41,0.0,0.0,5.0,0.0,0.0,0.0,75.0,76.0,87.0,80.0,32.0,130.63,4.0,-30.0,7.0,-961.0
42,0.0,0.0,5.0,0.0,0.0,0.0,75.0,76.0,88.0,80.0,32.0,130.52,4.0,24.0,-13.0,-1024.0
43,0.0,0.0,5.0,0.0,0.0,0.0,75.0,76.0,88.0,80.0,32.0,130.59,4.0,-21.0,4.0,-972.0
44,0.0,0.0,5.0,0.0,0.0,0.0,75.0,76.0,89.0,80.0,32.0,130.62,4.0,-42.0,13.0,-950.0
45,0.0,0.0,5.0,0.0,0.0,0.0,75.0,76.0,88.0,80.0,32.0,130.61,4.0,-7.0,2.0,-1063.0
46,0.0,0.0,5.0,0.0,0.0,0.0,75.0,76.0,89.0,80.0,32.0,130.64,4.0,22.0,-6.0,-968.0
47,0.0,0.0,5.0,0.0,0.0,0.0,75.0,76.0,89.0,80.0,32.0,130.58,4.0,-5.0,4.0,-1007.0
48,0.0,0.0,5.0,0.0,0.0,0.0,75.0,76.0,89.0,80.0,32.0,130.62,4.0,-9.0,5.0,-983.0
49,0.0,0.0,5.0,0.0,0.0,0.0,75.0,76.0,89.0,80.0,32.0,130.57,4.0,14.0,-11.0,-1027.0
50,0.0,0.0,5.0,0.0,0.0,0.0,75.0,76.0,88.0,80.0,32.0,130.62,4.0,-15.0,-2.0,-1002.0
51,0.0,0.0,5.0,0.0,0.0,0.0,75.0,76.0,88.0,80.0,32.0,130.63,5.0,-3.0,-2.0,-964.0
52,0.0,0.0,5.0,0.0,0.0,0.0,75.0,76.0,88.0,80.0,32.0,130.64,5.0,-23.0,4.0,-991.0
53,0.0,0.0,5.0,0.0,0.0,0.0,75.0,76.0,88.0,80.0,32.0,130.55,5.0,49.0,-25.0,-1064.0
54,0.0,0.0,5.0,0.0,0.0,0.0,75.0,76.0,88.0,80.0,32.0,130.59,5.0,-61.0,21.0,-968.0
55,0.0,0.0,5.0,0.0,0.0,0.0,76.0,77.0,87.0,80.0,32.0,130.62,5.0,26.0,-10.0,-985.0
56,0.0,0.0,5.0,0.0,0.0,0.0,76.0,77.0,87.0,80.0,32.0,130.56,5.0,-14.0,2.0,-1003.0
57,0.0,0.0,5.0,0.0,0.0,0.0,76.0,77.0,87.0,80.0,32.0,130.57,5.0,26.0,-20.0,-968.0
58,0.0,0.0,5.0,0.0,0.0,0.0,76.0,77.0,86.0,80.0,32.0,130.58,5.0,-3.0,-7.0,-978.0
59,0.0,0.0,5.0,0.0,0.0,0.0,76.0,77.0,86.0,80.0,32.0,130.59,5.0,-9.0,5.0,-982.0
60,0.0,0.0,5.0,0.0,0.0,0.0,76.0,77.0,86.0,80.0,32.0,130.64,6.0,-22.0,7.0,-1009.0
61,0.0,0.0,5.0,0.0,0.0,0.0,76.0,77.0,87.0,80.0,32.0,130.63,6.0,7.0,-10.0,-1003.0
62,0.0,0.0,5.0,0.0,0.0,0.0,76.0,77.0,86.0,80.0,32.0,130.61,6.0,-5.0,0.0,-981.0
63,0.0,0.0,5.0,0.0,0.0,0.0,76.0,77.0,86.0,80.0,32.0,130.58,6.0,-27.0,6.0,-981.0
64,0.0,0.0,5.0,0.0,0.0,0.0,76.0,77.0,86.0,80.0,32.0,130.58,6.0,-11.0,-5.0,-962.0
65,0.0,0.0,5.0,0.0,0.0,0.0,75.0,76.0,86.0,80.0,32.0,130.67,6.0,-2.0,-14.0,-983.0
66,0.0,0.0,5.0,0.0,0.0,0.0,75.0,76.0,86.0,80.0,32.0,130.61,6.0,-9.0,1.0,-1004.0
